{
    "type": "FeatureCollection",
    "features": [
        {
            "type": "Feature",
            "geometry": {
                "type": "Point",
                "coordinates": [
                    -46.673183086192,
                    -23.63090921584656
                ]
            },
            "properties": {
                "Nom": "Bernardino de Campos - São Paulo - SP"
            }
        },
        {
            "type": "Feature",
            "geometry": {
                "type": "Point",
                "coordinates": [
                    -46.5895331661924,
                    -23.58679961577691
                ]
            },
            "properties": {
                "Nom": "Ilha das Cobras - São Paulo - SP"
            }
        },
        {
            "type": "Feature",
            "geometry": {
                "type": "Point",
                "coordinates": [
                    -46.70089520417358,
                    -23.723988765993827
                ]
            },
            "properties": {
                "Nom": "Jardim Cliper - São Paulo - SP"
            }
        },
        {
            "type": "Feature",
            "geometry": {
                "type": "Point",
                "coordinates": [
                    -46.670793700000004,
                    -23.63091707652946
                ]
            },
            "properties": {
                "Nom": "Rua Iguaçu - São Paulo - SP"
            }
        },
        {
            "type": "Feature",
            "geometry": {
                "type": "Point",
                "coordinates": [
                    -46.5479663,
                    -23.536840147637744
                ]
            },
            "properties": {
                "Nom": "Alferez Frazão - São Paulo - SP"
            }
        },
        {
            "type": "Feature",
            "geometry": {
                "type": "Point",
                "coordinates": [
                    -46.5535109,
                    -23.536409276205898
                ]
            },
            "properties": {
                "Nom": "Alegre - São Paulo - SP"
            }
        },
        {
            "type": "Feature",
            "geometry": {
                "type": "Point",
                "coordinates": [
                    -46.554076949999995,
                    -23.540547989034355
                ]
            },
            "properties": {
                "Nom": "Serra de Botucatu - São Paulo - SP"
            }
        },
        {
            "type": "Feature",
            "geometry": {
                "type": "Point",
                "coordinates": [
                    -46.73556450000001,
                    -23.598850394362504
                ]
            },
            "properties": {
                "Nom": "Dias Vieira - São Paulo - SP"
            }
        },
        {
            "type": "Feature",
            "geometry": {
                "type": "Point",
                "coordinates": [
                    -46.783351739733455,
                    -23.732994416008104
                ]
            },
            "properties": {
                "Nom": "Avenida dos Funcionários Públicos - São Paulo - SP"
            }
        },
        {
            "type": "Feature",
            "geometry": {
                "type": "Point",
                "coordinates": [
                    -46.65345611443236,
                    -23.470552115593758
                ]
            },
            "properties": {
                "Nom": "Avenida Parada Pinto - São Paulo - SP"
            }
        },
        {
            "type": "Feature",
            "geometry": {
                "type": "Point",
                "coordinates": [
                    -46.68746642604569,
                    -23.759102766049487
                ]
            },
            "properties": {
                "Nom": "Chácara do Conde - Invasão - São Paulo - SP"
            }
        },
        {
            "type": "Feature",
            "geometry": {
                "type": "Point",
                "coordinates": [
                    -46.60333951542762,
                    -23.642433165864787
                ]
            },
            "properties": {
                "Nom": "Vila Caraguata - São Paulo - SP"
            }
        },
        {
            "type": "Feature",
            "geometry": {
                "type": "Point",
                "coordinates": [
                    -46.672278203099495,
                    -23.629751415844744
                ]
            },
            "properties": {
                "Nom": "Sônia Ribeiro - São Paulo - SP"
            }
        },
        {
            "type": "Feature",
            "geometry": {
                "type": "Point",
                "coordinates": [
                    -46.74649325000001,
                    -23.647869981423035
                ]
            },
            "properties": {
                "Nom": "Vila das Belezas - São Paulo - SP"
            }
        },
        {
            "type": "Feature",
            "geometry": {
                "type": "Point",
                "coordinates": [
                    -46.7821468,
                    -23.64660832203978
                ]
            },
            "properties": {
                "Nom": "Galinha D'Água - São Paulo - SP"
            }
        },
        {
            "type": "Feature",
            "geometry": {
                "type": "Point",
                "coordinates": [
                    -46.76625149999999,
                    -23.700976962692085
                ]
            },
            "properties": {
                "Nom": "Alto da Riviera II - São Paulo - SP"
            }
        },
        {
            "type": "Feature",
            "geometry": {
                "type": "Point",
                "coordinates": [
                    -46.60961790000001,
                    -23.543161493650643
                ]
            },
            "properties": {
                "Nom": "Comunidade 21 - São Paulo - SP"
            }
        },
        {
            "type": "Feature",
            "geometry": {
                "type": "Point",
                "coordinates": [
                    -46.747006219112805,
                    -23.614800165821116
                ]
            },
            "properties": {
                "Nom": "Faustino da Silva - São Paulo - SP"
            }
        },
        {
            "type": "Feature",
            "geometry": {
                "type": "Point",
                "coordinates": [
                    -46.672086278347734,
                    -23.664422215899535
                ]
            },
            "properties": {
                "Nom": "Vila Inglesa - São Paulo - SP"
            }
        },
        {
            "type": "Feature",
            "geometry": {
                "type": "Point",
                "coordinates": [
                    -46.41501649999999,
                    -23.492245122940865
                ]
            },
            "properties": {
                "Nom": "Jardim Maia I - São Paulo - SP"
            }
        },
        {
            "type": "Feature",
            "geometry": {
                "type": "Point",
                "coordinates": [
                    -46.59034841943991,
                    -23.626953115840315
                ]
            },
            "properties": {
                "Nom": "Morro da USP - São Paulo - SP"
            }
        },
        {
            "type": "Feature",
            "geometry": {
                "type": "Point",
                "coordinates": [
                    -46.7563835,
                    -23.572121483943388
                ]
            },
            "properties": {
                "Nom": "Água Podre - São Paulo - SP"
            }
        },
        {
            "type": "Feature",
            "geometry": {
                "type": "Point",
                "coordinates": [
                    -46.73575532195066,
                    -23.797139866109823
                ]
            },
            "properties": {
                "Nom": "Marcelo Bernardini - São Paulo - SP"
            }
        },
        {
            "type": "Feature",
            "geometry": {
                "type": "Point",
                "coordinates": [
                    -46.645540977270215,
                    -23.66536731590104
                ]
            },
            "properties": {
                "Nom": "Manuel Melo Freire - São Paulo - SP"
            }
        },
        {
            "type": "Feature",
            "geometry": {
                "type": "Point",
                "coordinates": [
                    -46.42378098485855,
                    -23.59024496578235
                ]
            },
            "properties": {
                "Nom": "Colônia - Jardim Pedra Branca - São Paulo - SP"
            }
        },
        {
            "type": "Feature",
            "geometry": {
                "type": "Point",
                "coordinates": [
                    -46.54151785,
                    -23.58114621761795
                ]
            },
            "properties": {
                "Nom": "Amadeu - São Paulo - SP"
            }
        },
        {
            "type": "Feature",
            "geometry": {
                "type": "Point",
                "coordinates": [
                    -46.686268600000005,
                    -23.488696900033027
                ]
            },
            "properties": {
                "Nom": "Vila Bancária - São Paulo - SP"
            }
        },
        {
            "type": "Feature",
            "geometry": {
                "type": "Point",
                "coordinates": [
                    -46.39132695,
                    -23.497856571147853
                ]
            },
            "properties": {
                "Nom": "Comunidade Jardim Virgínia - São Paulo - SP"
            }
        },
        {
            "type": "Feature",
            "geometry": {
                "type": "Point",
                "coordinates": [
                    -46.68148300000001,
                    -23.46926894242634
                ]
            },
            "properties": {
                "Nom": "Mirangoaba II - São Paulo - SP"
            }
        },
        {
            "type": "Feature",
            "geometry": {
                "type": "Point",
                "coordinates": [
                    -46.695978701036374,
                    -23.720309015988
                ]
            },
            "properties": {
                "Nom": "Dezenove - São Paulo - SP"
            }
        },
        {
            "type": "Feature",
            "geometry": {
                "type": "Point",
                "coordinates": [
                    -46.48185515,
                    -23.509873646684373
                ]
            },
            "properties": {
                "Nom": "Jardim Cotinha - São Paulo - SP"
            }
        },
        {
            "type": "Feature",
            "geometry": {
                "type": "Point",
                "coordinates": [
                    -46.448295449999996,
                    -23.62855892224515
                ]
            },
            "properties": {
                "Nom": "Núcleo B - São Francisco Global - São Paulo - SP"
            }
        },
        {
            "type": "Feature",
            "geometry": {
                "type": "Point",
                "coordinates": [
                    -46.590153599999994,
                    -23.616357801939042
                ]
            },
            "properties": {
                "Nom": "Heliópolis - São Paulo - SP"
            }
        },
        {
            "type": "Feature",
            "geometry": {
                "type": "Point",
                "coordinates": [
                    -46.70768614808434,
                    -23.444640065553024
                ]
            },
            "properties": {
                "Nom": "Recanto das Estrelas - São Paulo - SP"
            }
        },
        {
            "type": "Feature",
            "geometry": {
                "type": "Point",
                "coordinates": [
                    -46.73366015755306,
                    -23.53833611570049
                ]
            },
            "properties": {
                "Nom": "Japiaçu - São Paulo - SP"
            }
        },
        {
            "type": "Feature",
            "geometry": {
                "type": "Point",
                "coordinates": [
                    -46.678585600000005,
                    -23.48144818884863
                ]
            },
            "properties": {
                "Nom": "Jardim Cachoeira - São Paulo - SP"
            }
        },
        {
            "type": "Feature",
            "geometry": {
                "type": "Point",
                "coordinates": [
                    -46.6611118,
                    -23.46830937735531
                ]
            },
            "properties": {
                "Nom": "Odassi Nazzali - São Paulo - SP"
            }
        },
        {
            "type": "Feature",
            "geometry": {
                "type": "Point",
                "coordinates": [
                    -46.444342081997334,
                    -23.632243165848678
                ]
            },
            "properties": {
                "Nom": "Pouso do Capim Grosso - São Paulo - SP"
            }
        },
        {
            "type": "Feature",
            "geometry": {
                "type": "Point",
                "coordinates": [
                    -46.483627299999995,
                    -23.59241945813248
                ]
            },
            "properties": {
                "Nom": "Nove de Julho - São Paulo - SP"
            }
        },
        {
            "type": "Feature",
            "geometry": {
                "type": "Point",
                "coordinates": [
                    -46.43300625882352,
                    -23.622915815833935
                ]
            },
            "properties": {
                "Nom": "Quilometro Vinte e Oito - São Paulo - SP"
            }
        },
        {
            "type": "Feature",
            "geometry": {
                "type": "Point",
                "coordinates": [
                    -46.72820774999999,
                    -23.43931501855902
                ]
            },
            "properties": {
                "Nom": "Jardim Rincão II - São Paulo - SP"
            }
        },
        {
            "type": "Feature",
            "geometry": {
                "type": "Point",
                "coordinates": [
                    -46.755051156834355,
                    -23.481796515611457
                ]
            },
            "properties": {
                "Nom": "Jardim Monte Alegre - São Paulo - SP"
            }
        },
        {
            "type": "Feature",
            "geometry": {
                "type": "Point",
                "coordinates": [
                    -46.728260600000006,
                    -23.656713820794934
                ]
            },
            "properties": {
                "Nom": "Jardim da Felicidade - São Paulo - SP"
            }
        },
        {
            "type": "Feature",
            "geometry": {
                "type": "Point",
                "coordinates": [
                    -46.5188374,
                    -23.5687604391541
                ]
            },
            "properties": {
                "Nom": "Haia do Carrão - São Paulo - SP"
            }
        },
        {
            "type": "Feature",
            "geometry": {
                "type": "Point",
                "coordinates": [
                    -46.57073696909014,
                    -23.48117746561048
                ]
            },
            "properties": {
                "Nom": "Erótides de Campos - São Paulo - SP"
            }
        },
        {
            "type": "Feature",
            "geometry": {
                "type": "Point",
                "coordinates": [
                    -46.576541907948524,
                    -23.521564215674054
                ]
            },
            "properties": {
                "Nom": "Nova Tiete - São Paulo - SP"
            }
        },
        {
            "type": "Feature",
            "geometry": {
                "type": "Point",
                "coordinates": [
                    -46.64241135,
                    -23.590808574184834
                ]
            },
            "properties": {
                "Nom": "Mario Cardim - São Paulo - SP"
            }
        },
        {
            "type": "Feature",
            "geometry": {
                "type": "Point",
                "coordinates": [
                    -46.50129545,
                    -23.556067221141948
                ]
            },
            "properties": {
                "Nom": "Jardim Eliane - São Paulo - SP"
            }
        },
        {
            "type": "Feature",
            "geometry": {
                "type": "Point",
                "coordinates": [
                    -46.479974850000005,
                    -23.552820979639975
                ]
            },
            "properties": {
                "Nom": "Ocupação Boa Esperança - São Paulo - SP"
            }
        },
        {
            "type": "Feature",
            "geometry": {
                "type": "Point",
                "coordinates": [
                    -46.38169325,
                    -23.496555721837336
                ]
            },
            "properties": {
                "Nom": "Tijuco Preto II - São Paulo - SP"
            }
        },
        {
            "type": "Feature",
            "geometry": {
                "type": "Point",
                "coordinates": [
                    -46.68459790745614,
                    -23.48850651562201
                ]
            },
            "properties": {
                "Nom": "Inajar de Souza I - São Paulo - SP"
            }
        },
        {
            "type": "Feature",
            "geometry": {
                "type": "Point",
                "coordinates": [
                    -46.407531546580294,
                    -23.519474515670765
                ]
            },
            "properties": {
                "Nom": "Jardim Nazareth - São Paulo - SP"
            }
        },
        {
            "type": "Feature",
            "geometry": {
                "type": "Point",
                "coordinates": [
                    -46.43565924582441,
                    -23.48998096562434
                ]
            },
            "properties": {
                "Nom": "Santa Davina - São Paulo - SP"
            }
        },
        {
            "type": "Feature",
            "geometry": {
                "type": "Point",
                "coordinates": [
                    -46.681129350000006,
                    -23.470097464224256
                ]
            },
            "properties": {
                "Nom": "Mirangoaba I - São Paulo - SP"
            }
        },
        {
            "type": "Feature",
            "geometry": {
                "type": "Point",
                "coordinates": [
                    -46.51697355,
                    -23.50396006933405
                ]
            },
            "properties": {
                "Nom": "Caixa D'água - São Paulo - SP"
            }
        },
        {
            "type": "Feature",
            "geometry": {
                "type": "Point",
                "coordinates": [
                    -46.404261290406374,
                    -23.584798115773758
                ]
            },
            "properties": {
                "Nom": "Jardim Andorinha - São Paulo - SP"
            }
        },
        {
            "type": "Feature",
            "geometry": {
                "type": "Point",
                "coordinates": [
                    -46.404565999999996,
                    -23.489898896196625
                ]
            },
            "properties": {
                "Nom": "Seabra - São Paulo - SP"
            }
        },
        {
            "type": "Feature",
            "geometry": {
                "type": "Point",
                "coordinates": [
                    -46.73360422232569,
                    -23.542003465706273
                ]
            },
            "properties": {
                "Nom": "Favela da Linha - São Paulo - SP"
            }
        },
        {
            "type": "Feature",
            "geometry": {
                "type": "Point",
                "coordinates": [
                    -46.61783951168795,
                    -23.55329791572407
                ]
            },
            "properties": {
                "Nom": "Tijolinhos da Mooca - São Paulo - SP"
            }
        },
        {
            "type": "Feature",
            "geometry": {
                "type": "Point",
                "coordinates": [
                    -46.71351305,
                    -23.425586404235208
                ]
            },
            "properties": {
                "Nom": "Palácio Guanabara - São Paulo - SP"
            }
        },
        {
            "type": "Feature",
            "geometry": {
                "type": "Point",
                "coordinates": [
                    -46.753940189659964,
                    -23.48500961561651
                ]
            },
            "properties": {
                "Nom": "Vila Saloá - São Paulo - SP"
            }
        },
        {
            "type": "Feature",
            "geometry": {
                "type": "Point",
                "coordinates": [
                    -46.65885962799644,
                    -23.462872765581693
                ]
            },
            "properties": {
                "Nom": "Sucupira - São Paulo - SP"
            }
        },
        {
            "type": "Feature",
            "geometry": {
                "type": "Point",
                "coordinates": [
                    -46.735923650000004,
                    -23.646819825877238
                ]
            },
            "properties": {
                "Nom": "Jardim Monte Azul - São Paulo - SP"
            }
        },
        {
            "type": "Feature",
            "geometry": {
                "type": "Point",
                "coordinates": [
                    -46.568701000000004,
                    -23.483008271203612
                ]
            },
            "properties": {
                "Nom": "Francisco Alves Bezerra II - São Paulo - SP"
            }
        },
        {
            "type": "Feature",
            "geometry": {
                "type": "Point",
                "coordinates": [
                    -46.493308600000006,
                    -23.54928229574366
                ]
            },
            "properties": {
                "Nom": "Esperantinópolis - São Paulo - SP"
            }
        },
        {
            "type": "Feature",
            "geometry": {
                "type": "Point",
                "coordinates": [
                    -46.371266175890916,
                    -23.499608715639486
                ]
            },
            "properties": {
                "Nom": "Jardim Miliunas - São Paulo - SP"
            }
        },
        {
            "type": "Feature",
            "geometry": {
                "type": "Point",
                "coordinates": [
                    -46.480376250000006,
                    -23.593962473265393
                ]
            },
            "properties": {
                "Nom": "Cinco de Julho - São Paulo - SP"
            }
        },
        {
            "type": "Feature",
            "geometry": {
                "type": "Point",
                "coordinates": [
                    -46.693479583704416,
                    -23.462843365581648
                ]
            },
            "properties": {
                "Nom": "Guariroba - São Paulo - SP"
            }
        },
        {
            "type": "Feature",
            "geometry": {
                "type": "Point",
                "coordinates": [
                    -46.70687050000001,
                    -23.73540682227542
                ]
            },
            "properties": {
                "Nom": "Jardim Imbuias - São Paulo - SP"
            }
        },
        {
            "type": "Feature",
            "geometry": {
                "type": "Point",
                "coordinates": [
                    -46.48696965,
                    -23.492166481047157
                ]
            },
            "properties": {
                "Nom": "Veronia II - São Paulo - SP"
            }
        },
        {
            "type": "Feature",
            "geometry": {
                "type": "Point",
                "coordinates": [
                    -46.686717798153154,
                    -23.513183015660857
                ]
            },
            "properties": {
                "Nom": "Funaps Multirão - São Paulo - SP"
            }
        },
        {
            "type": "Feature",
            "geometry": {
                "type": "Point",
                "coordinates": [
                    -46.6714555397351,
                    -23.496053015633887
                ]
            },
            "properties": {
                "Nom": "Beira-Mar - São Paulo - SP"
            }
        },
        {
            "type": "Feature",
            "geometry": {
                "type": "Point",
                "coordinates": [
                    -46.7627650385136,
                    -23.40918506549733
                ]
            },
            "properties": {
                "Nom": "Recanto da Alegria - São Paulo - SP"
            }
        },
        {
            "type": "Feature",
            "geometry": {
                "type": "Point",
                "coordinates": [
                    -46.60144002799999,
                    -23.638438065858463
                ]
            },
            "properties": {
                "Nom": "Jardim Maria Estela - São Paulo - SP"
            }
        },
        {
            "type": "Feature",
            "geometry": {
                "type": "Point",
                "coordinates": [
                    -46.729147000000005,
                    -23.642790482034837
                ]
            },
            "properties": {
                "Nom": "Peinha - São Paulo - SP"
            }
        },
        {
            "type": "Feature",
            "geometry": {
                "type": "Point",
                "coordinates": [
                    -46.77588564999999,
                    -23.648996088119283
                ]
            },
            "properties": {
                "Nom": "Sete de Abril - São Paulo - SP"
            }
        },
        {
            "type": "Feature",
            "geometry": {
                "type": "Point",
                "coordinates": [
                    -46.66175599999999,
                    -23.711216777716256
                ]
            },
            "properties": {
                "Nom": "Paulistas - São Paulo - SP"
            }
        },
        {
            "type": "Feature",
            "geometry": {
                "type": "Point",
                "coordinates": [
                    -46.5406212329983,
                    -23.61027196581396
                ]
            },
            "properties": {
                "Nom": "Sevilha - São Paulo - SP"
            }
        },
        {
            "type": "Feature",
            "geometry": {
                "type": "Point",
                "coordinates": [
                    -46.745115,
                    -23.668860952369947
                ]
            },
            "properties": {
                "Nom": "Jardim Letícia - São Paulo - SP"
            }
        },
        {
            "type": "Feature",
            "geometry": {
                "type": "Point",
                "coordinates": [
                    -46.477394149999995,
                    -23.520164539881037
                ]
            },
            "properties": {
                "Nom": "Agreste de Itabaiana - São Paulo - SP"
            }
        },
        {
            "type": "Feature",
            "geometry": {
                "type": "Point",
                "coordinates": [
                    -46.38576722550053,
                    -23.50784901565246
                ]
            },
            "properties": {
                "Nom": "Jardim Nélia - São Paulo - SP"
            }
        },
        {
            "type": "Feature",
            "geometry": {
                "type": "Point",
                "coordinates": [
                    -46.48212535000001,
                    -23.588321990490883
                ]
            },
            "properties": {
                "Nom": "Dois de Maio - São Paulo - SP"
            }
        },
        {
            "type": "Feature",
            "geometry": {
                "type": "Point",
                "coordinates": [
                    -46.4355669,
                    -23.59906683476488
                ]
            },
            "properties": {
                "Nom": "Mendonça Arraes - São Paulo - SP"
            }
        },
        {
            "type": "Feature",
            "geometry": {
                "type": "Point",
                "coordinates": [
                    -46.41647320973001,
                    -23.62089101583074
                ]
            },
            "properties": {
                "Nom": "Jardim Solange II - São Paulo - SP"
            }
        },
        {
            "type": "Feature",
            "geometry": {
                "type": "Point",
                "coordinates": [
                    -46.690526627070646,
                    -23.4641551655837
                ]
            },
            "properties": {
                "Nom": "Vitoria Regia - São Paulo - SP"
            }
        },
        {
            "type": "Feature",
            "geometry": {
                "type": "Point",
                "coordinates": [
                    -46.54576765779191,
                    -23.514723615663282
                ]
            },
            "properties": {
                "Nom": "Jahu Cangaíba - São Paulo - SP"
            }
        },
        {
            "type": "Feature",
            "geometry": {
                "type": "Point",
                "coordinates": [
                    -46.71966221377853,
                    -23.450527515562275
                ]
            },
            "properties": {
                "Nom": "Baltazar de Campos / Viela A - São Paulo - SP"
            }
        },
        {
            "type": "Feature",
            "geometry": {
                "type": "Point",
                "coordinates": [
                    -46.54938475000001,
                    -23.51831403596479
                ]
            },
            "properties": {
                "Nom": "Avenida Gabriela Mistral - São Paulo - SP"
            }
        },
        {
            "type": "Feature",
            "geometry": {
                "type": "Point",
                "coordinates": [
                    -46.70830496042134,
                    -23.477211515604242
                ]
            },
            "properties": {
                "Nom": "Vila Regina - São Paulo - SP"
            }
        },
        {
            "type": "Feature",
            "geometry": {
                "type": "Point",
                "coordinates": [
                    -46.76562745,
                    -23.40895496056393
                ]
            },
            "properties": {
                "Nom": "Botafogo - São Paulo - SP"
            }
        },
        {
            "type": "Feature",
            "geometry": {
                "type": "Point",
                "coordinates": [
                    -46.492379,
                    -23.548583487434264
                ]
            },
            "properties": {
                "Nom": "Dejanira - São Paulo - SP"
            }
        },
        {
            "type": "Feature",
            "geometry": {
                "type": "Point",
                "coordinates": [
                    -46.75290576414167,
                    -23.625661515838274
                ]
            },
            "properties": {
                "Nom": "Vila Nova Pirajussara - São Paulo - SP"
            }
        },
        {
            "type": "Feature",
            "geometry": {
                "type": "Point",
                "coordinates": [
                    -46.6739295,
                    -23.65954816482801
                ]
            },
            "properties": {
                "Nom": "Coréia - São Paulo - SP"
            }
        },
        {
            "type": "Feature",
            "geometry": {
                "type": "Point",
                "coordinates": [
                    -46.68272844999999,
                    -23.71713510330862
                ]
            },
            "properties": {
                "Nom": "Anthero Gomes do Nascimento - São Paulo - SP"
            }
        },
        {
            "type": "Feature",
            "geometry": {
                "type": "Point",
                "coordinates": [
                    -46.56840817432041,
                    -23.469956015592825
                ]
            },
            "properties": {
                "Nom": "Aquarela do Parque Edu Chaves - São Paulo - SP"
            }
        },
        {
            "type": "Feature",
            "geometry": {
                "type": "Point",
                "coordinates": [
                    -46.7460532,
                    -23.680862060163175
                ]
            },
            "properties": {
                "Nom": "Parque Figueira Grande IV - São Paulo - SP"
            }
        },
        {
            "type": "Feature",
            "geometry": {
                "type": "Point",
                "coordinates": [
                    -46.575874,
                    -23.51769388282469
                ]
            },
            "properties": {
                "Nom": "Funerária - São Paulo - SP"
            }
        },
        {
            "type": "Feature",
            "geometry": {
                "type": "Point",
                "coordinates": [
                    -46.74604659926362,
                    -23.688997715938424
                ]
            },
            "properties": {
                "Nom": "Jardim Leila / Parque Japão - São Paulo - SP"
            }
        },
        {
            "type": "Feature",
            "geometry": {
                "type": "Point",
                "coordinates": [
                    -46.401568110561136,
                    -23.5129503156605
                ]
            },
            "properties": {
                "Nom": "Jardim Campos II - São Paulo - SP"
            }
        },
        {
            "type": "Feature",
            "geometry": {
                "type": "Point",
                "coordinates": [
                    -46.4794075,
                    -23.597491708465864
                ]
            },
            "properties": {
                "Nom": "Vila Flávia - São Paulo - SP"
            }
        },
        {
            "type": "Feature",
            "geometry": {
                "type": "Point",
                "coordinates": [
                    -46.43294880228849,
                    -23.605660565806687
                ]
            },
            "properties": {
                "Nom": "Jardim das Laranjeiras - São Paulo - SP"
            }
        },
        {
            "type": "Feature",
            "geometry": {
                "type": "Point",
                "coordinates": [
                    -46.6872100117038,
                    -23.46397471558342
                ]
            },
            "properties": {
                "Nom": "Ana Maria - São Paulo - SP"
            }
        },
        {
            "type": "Feature",
            "geometry": {
                "type": "Point",
                "coordinates": [
                    -46.71863105,
                    -23.45345914665452
                ]
            },
            "properties": {
                "Nom": "Jardim Sydney II - São Paulo - SP"
            }
        },
        {
            "type": "Feature",
            "geometry": {
                "type": "Point",
                "coordinates": [
                    -46.7462948,
                    -23.686631960253063
                ]
            },
            "properties": {
                "Nom": "Jardim Souza / Jardim Souza II - São Paulo - SP"
            }
        },
        {
            "type": "Feature",
            "geometry": {
                "type": "Point",
                "coordinates": [
                    -46.64831667464997,
                    -23.630465065845872
                ]
            },
            "properties": {
                "Nom": "Jurandir - São Paulo - SP"
            }
        },
        {
            "type": "Feature",
            "geometry": {
                "type": "Point",
                "coordinates": [
                    -46.655507331762635,
                    -23.65996251589249
                ]
            },
            "properties": {
                "Nom": "Piolho / Piolho II - São Paulo - SP"
            }
        },
        {
            "type": "Feature",
            "geometry": {
                "type": "Point",
                "coordinates": [
                    -46.75676518333203,
                    -23.49081101562564
                ]
            },
            "properties": {
                "Nom": "Vila Jaraguá - São Paulo - SP"
            }
        },
        {
            "type": "Feature",
            "geometry": {
                "type": "Point",
                "coordinates": [
                    -46.66465251839827,
                    -23.462523265581137
                ]
            },
            "properties": {
                "Nom": "Jardim Peri / Peri Novo I - São Paulo - SP"
            }
        },
        {
            "type": "Feature",
            "geometry": {
                "type": "Point",
                "coordinates": [
                    -46.67554024217023,
                    -23.66406406589898
                ]
            },
            "properties": {
                "Nom": "Vila Inglesa de Baixo - São Paulo - SP"
            }
        },
        {
            "type": "Feature",
            "geometry": {
                "type": "Point",
                "coordinates": [
                    -46.60861287087724,
                    -23.64028301586138
                ]
            },
            "properties": {
                "Nom": "Jardim Clímax - São Paulo - SP"
            }
        },
        {
            "type": "Feature",
            "geometry": {
                "type": "Point",
                "coordinates": [
                    -46.679997549999996,
                    -23.456846082354968
                ]
            },
            "properties": {
                "Nom": "Norberto Almandoz - São Paulo - SP"
            }
        },
        {
            "type": "Feature",
            "geometry": {
                "type": "Point",
                "coordinates": [
                    -46.67703032798706,
                    -23.678875765922406
                ]
            },
            "properties": {
                "Nom": "Campo Grande I - São Paulo - SP"
            }
        },
        {
            "type": "Feature",
            "geometry": {
                "type": "Point",
                "coordinates": [
                    -46.39442835105752,
                    -23.482835915613087
                ]
            },
            "properties": {
                "Nom": "Gruta das Princesas - São Paulo - SP"
            }
        },
        {
            "type": "Feature",
            "geometry": {
                "type": "Point",
                "coordinates": [
                    -46.40484740000001,
                    -23.507521432015864
                ]
            },
            "properties": {
                "Nom": "Jardim Campos I - São Paulo - SP"
            }
        },
        {
            "type": "Feature",
            "geometry": {
                "type": "Point",
                "coordinates": [
                    -46.684209949999996,
                    -23.475991653701065
                ]
            },
            "properties": {
                "Nom": "Favela do Pó - São Paulo - SP"
            }
        },
        {
            "type": "Feature",
            "geometry": {
                "type": "Point",
                "coordinates": [
                    -46.70241060133928,
                    -23.741079516020907
                ]
            },
            "properties": {
                "Nom": "Parque São José VI - São Paulo - SP"
            }
        },
        {
            "type": "Feature",
            "geometry": {
                "type": "Point",
                "coordinates": [
                    -46.65571390000001,
                    -23.633259914629
                ]
            },
            "properties": {
                "Nom": "Radar - São Paulo - SP"
            }
        },
        {
            "type": "Feature",
            "geometry": {
                "type": "Point",
                "coordinates": [
                    -46.66049162231015,
                    -23.65762451588879
                ]
            },
            "properties": {
                "Nom": "Tirso Martins - São Paulo - SP"
            }
        },
        {
            "type": "Feature",
            "geometry": {
                "type": "Point",
                "coordinates": [
                    -46.572414344797274,
                    -23.51696786566682
                ]
            },
            "properties": {
                "Nom": "Vila São João - São Paulo - SP"
            }
        },
        {
            "type": "Feature",
            "geometry": {
                "type": "Point",
                "coordinates": [
                    -46.40184298552773,
                    -23.490414115625015
                ]
            },
            "properties": {
                "Nom": "Vila Aimore - São Paulo - SP"
            }
        },
        {
            "type": "Feature",
            "geometry": {
                "type": "Point",
                "coordinates": [
                    -46.48493209999999,
                    -23.605235565521753
                ]
            },
            "properties": {
                "Nom": "Vergueirinho / Nova Divinéia - São Paulo - SP"
            }
        },
        {
            "type": "Feature",
            "geometry": {
                "type": "Point",
                "coordinates": [
                    -46.682540450000005,
                    -23.473964727728283
                ]
            },
            "properties": {
                "Nom": "Campo Formoso / João Francisco - São Paulo - SP"
            }
        },
        {
            "type": "Feature",
            "geometry": {
                "type": "Point",
                "coordinates": [
                    -46.762679301093975,
                    -23.692485315943944
                ]
            },
            "properties": {
                "Nom": "Kagohara III - São Paulo - SP"
            }
        },
        {
            "type": "Feature",
            "geometry": {
                "type": "Point",
                "coordinates": [
                    -46.56792445670235,
                    -23.49166566562699
                ]
            },
            "properties": {
                "Nom": "Violão II - São Paulo - SP"
            }
        },
        {
            "type": "Feature",
            "geometry": {
                "type": "Point",
                "coordinates": [
                    -46.48661693463329,
                    -23.501792215642922
                ]
            },
            "properties": {
                "Nom": "Dona Lola - São Paulo - SP"
            }
        },
        {
            "type": "Feature",
            "geometry": {
                "type": "Point",
                "coordinates": [
                    -46.71756449571893,
                    -23.473390565598226
                ]
            },
            "properties": {
                "Nom": "Paquetá I - São Paulo - SP"
            }
        },
        {
            "type": "Feature",
            "geometry": {
                "type": "Point",
                "coordinates": [
                    -46.71427995,
                    -23.456479059755182
                ]
            },
            "properties": {
                "Nom": "Cantagalo - São Paulo - SP"
            }
        },
        {
            "type": "Feature",
            "geometry": {
                "type": "Point",
                "coordinates": [
                    -46.654112484255464,
                    -23.679407565923245
                ]
            },
            "properties": {
                "Nom": "Vila Joaniza - São Paulo - SP"
            }
        },
        {
            "type": "Feature",
            "geometry": {
                "type": "Point",
                "coordinates": [
                    -46.512107605739345,
                    -23.612164215816964
                ]
            },
            "properties": {
                "Nom": "Jardim Maria Terezinha - São Paulo - SP"
            }
        },
        {
            "type": "Feature",
            "geometry": {
                "type": "Point",
                "coordinates": [
                    -46.600387075672195,
                    -23.653194165881793
                ]
            },
            "properties": {
                "Nom": "Liviero - São Paulo - SP"
            }
        },
        {
            "type": "Feature",
            "geometry": {
                "type": "Point",
                "coordinates": [
                    -46.3872534,
                    -23.50658281947185
                ]
            },
            "properties": {
                "Nom": "Monte Taó - São Paulo - SP"
            }
        },
        {
            "type": "Feature",
            "geometry": {
                "type": "Point",
                "coordinates": [
                    -46.481768451260166,
                    -23.605825465806948
                ]
            },
            "properties": {
                "Nom": "Maria Cursi - São Paulo - SP"
            }
        },
        {
            "type": "Feature",
            "geometry": {
                "type": "Point",
                "coordinates": [
                    -46.6554569098212,
                    -23.683929365930403
                ]
            },
            "properties": {
                "Nom": "Jardim São Carlos - São Paulo - SP"
            }
        },
        {
            "type": "Feature",
            "geometry": {
                "type": "Point",
                "coordinates": [
                    -46.75051425,
                    -23.574731175009273
                ]
            },
            "properties": {
                "Nom": "Camarazal - São Paulo - SP"
            }
        },
        {
            "type": "Feature",
            "geometry": {
                "type": "Point",
                "coordinates": [
                    -46.762409350000006,
                    -23.688232388259298
                ]
            },
            "properties": {
                "Nom": "Jardim Planalto - São Paulo - SP"
            }
        },
        {
            "type": "Feature",
            "geometry": {
                "type": "Point",
                "coordinates": [
                    -46.656811499999996,
                    -23.64480382364984
                ]
            },
            "properties": {
                "Nom": "Babilônia - São Paulo - SP"
            }
        },
        {
            "type": "Feature",
            "geometry": {
                "type": "Point",
                "coordinates": [
                    -46.66423000000001,
                    -23.460283310365117
                ]
            },
            "properties": {
                "Nom": "Peri Novo II - São Paulo - SP"
            }
        },
        {
            "type": "Feature",
            "geometry": {
                "type": "Point",
                "coordinates": [
                    -46.75657017792435,
                    -23.661097015894285
                ]
            },
            "properties": {
                "Nom": "Parque Santo Antônio IV - São Paulo - SP"
            }
        },
        {
            "type": "Feature",
            "geometry": {
                "type": "Point",
                "coordinates": [
                    -46.52105325000001,
                    -23.613865121608722
                ]
            },
            "properties": {
                "Nom": "Iguaçu - São Paulo - SP"
            }
        },
        {
            "type": "Feature",
            "geometry": {
                "type": "Point",
                "coordinates": [
                    -46.59641788719076,
                    -23.652363765880473
                ]
            },
            "properties": {
                "Nom": "São Pedro - São Paulo - SP"
            }
        },
        {
            "type": "Feature",
            "geometry": {
                "type": "Point",
                "coordinates": [
                    -46.59042675,
                    -23.5849060072794
                ]
            },
            "properties": {
                "Nom": "Vila Prudente - São Paulo - SP"
            }
        },
        {
            "type": "Feature",
            "geometry": {
                "type": "Point",
                "coordinates": [
                    -46.4746751,
                    -23.605538198395784
                ]
            },
            "properties": {
                "Nom": "Colonial - São Paulo - SP"
            }
        },
        {
            "type": "Feature",
            "geometry": {
                "type": "Point",
                "coordinates": [
                    -46.68573937723214,
                    -23.461638065579745
                ]
            },
            "properties": {
                "Nom": "Parque Belém - São Paulo - SP"
            }
        },
        {
            "type": "Feature",
            "geometry": {
                "type": "Point",
                "coordinates": [
                    -46.668982,
                    -23.457725797539666
                ]
            },
            "properties": {
                "Nom": "Jardim Peri Alto - São Paulo - SP"
            }
        },
        {
            "type": "Feature",
            "geometry": {
                "type": "Point",
                "coordinates": [
                    -46.65748935,
                    -23.755122415981795
                ]
            },
            "properties": {
                "Nom": "Avenida Belmira Marin - São Paulo - SP"
            }
        },
        {
            "type": "Feature",
            "geometry": {
                "type": "Point",
                "coordinates": [
                    -46.43517550000001,
                    -23.48632031652027
                ]
            },
            "properties": {
                "Nom": "Santa Luzia - São Paulo - SP"
            }
        },
        {
            "type": "Feature",
            "geometry": {
                "type": "Point",
                "coordinates": [
                    -46.64506926642468,
                    -23.641081565862645
                ]
            },
            "properties": {
                "Nom": "Antônio Madi - São Paulo - SP"
            }
        },
        {
            "type": "Feature",
            "geometry": {
                "type": "Point",
                "coordinates": [
                    -46.71510389860452,
                    -23.468533765590585
                ]
            },
            "properties": {
                "Nom": "Milharal - São Paulo - SP"
            }
        },
        {
            "type": "Feature",
            "geometry": {
                "type": "Point",
                "coordinates": [
                    -46.666752258634496,
                    -23.45857276557493
                ]
            },
            "properties": {
                "Nom": "Jardim Peri Novo - São Paulo - SP"
            }
        },
        {
            "type": "Feature",
            "geometry": {
                "type": "Point",
                "coordinates": [
                    -46.61072481428094,
                    -23.651330115878842
                ]
            },
            "properties": {
                "Nom": "São Saverio - São Paulo - SP"
            }
        },
        {
            "type": "Feature",
            "geometry": {
                "type": "Point",
                "coordinates": [
                    -46.74627818827738,
                    -23.571680265753056
                ]
            },
            "properties": {
                "Nom": "Nossa Senhora da Assunção I, II, III - São Paulo - SP"
            }
        },
        {
            "type": "Feature",
            "geometry": {
                "type": "Point",
                "coordinates": [
                    -46.678603312069846,
                    -23.459877865576978
                ]
            },
            "properties": {
                "Nom": "Júlio Pinheiro - São Paulo - SP"
            }
        },
        {
            "type": "Feature",
            "geometry": {
                "type": "Point",
                "coordinates": [
                    -46.60505244535786,
                    -23.65276251588111
                ]
            },
            "properties": {
                "Nom": "Vila Cristina - São Paulo - SP"
            }
        },
        {
            "type": "Feature",
            "geometry": {
                "type": "Point",
                "coordinates": [
                    -46.608388925640945,
                    -23.448101115558465
                ]
            },
            "properties": {
                "Nom": "Vila Albertina I - São Paulo - SP"
            }
        },
        {
            "type": "Feature",
            "geometry": {
                "type": "Point",
                "coordinates": [
                    -46.46994265,
                    -23.621290471073017
                ]
            },
            "properties": {
                "Nom": "Jardim Vera Cruz - São Paulo - SP"
            }
        },
        {
            "type": "Feature",
            "geometry": {
                "type": "Point",
                "coordinates": [
                    -46.441928,
                    -23.516255343521422
                ]
            },
            "properties": {
                "Nom": "Vila Xavantes - São Paulo - SP"
            }
        },
        {
            "type": "Feature",
            "geometry": {
                "type": "Point",
                "coordinates": [
                    -46.7508779,
                    -23.591110258432074
                ]
            },
            "properties": {
                "Nom": "Jardim Jaqueline - São Paulo - SP"
            }
        },
        {
            "type": "Feature",
            "geometry": {
                "type": "Point",
                "coordinates": [
                    -46.769239950000006,
                    -23.689848501780027
                ]
            },
            "properties": {
                "Nom": "Jardim Copacabana - São Paulo - SP"
            }
        },
        {
            "type": "Feature",
            "geometry": {
                "type": "Point",
                "coordinates": [
                    -46.612217050000005,
                    -23.634967695095796
                ]
            },
            "properties": {
                "Nom": "Santa Angela - São Paulo - SP"
            }
        },
        {
            "type": "Feature",
            "geometry": {
                "type": "Point",
                "coordinates": [
                    -46.60838649999999,
                    -23.45162016465491
                ]
            },
            "properties": {
                "Nom": "Pedro Vaz Rego - São Paulo - SP"
            }
        },
        {
            "type": "Feature",
            "geometry": {
                "type": "Point",
                "coordinates": [
                    -46.47289812056266,
                    -23.56188376573761
                ]
            },
            "properties": {
                "Nom": "Maria Luiza Americano - São Paulo - SP"
            }
        },
        {
            "type": "Feature",
            "geometry": {
                "type": "Point",
                "coordinates": [
                    -46.68319284057615,
                    -23.460287965577628
                ]
            },
            "properties": {
                "Nom": "Carlos Mattiz - São Paulo - SP"
            }
        },
        {
            "type": "Feature",
            "geometry": {
                "type": "Point",
                "coordinates": [
                    -46.65853250000001,
                    -23.64244399124147
                ]
            },
            "properties": {
                "Nom": "Rocinha Paulistana / Beira Rio - São Paulo - SP"
            }
        },
        {
            "type": "Feature",
            "geometry": {
                "type": "Point",
                "coordinates": [
                    -46.78879549999999,
                    -23.64366163991108
                ]
            },
            "properties": {
                "Nom": "Jardim Maria Sampaio I - São Paulo - SP"
            }
        },
        {
            "type": "Feature",
            "geometry": {
                "type": "Point",
                "coordinates": [
                    -46.66845150000001,
                    -23.455993176123165
                ]
            },
            "properties": {
                "Nom": "Serrana Fluminense - São Paulo - SP"
            }
        },
        {
            "type": "Feature",
            "geometry": {
                "type": "Point",
                "coordinates": [
                    -46.77052745,
                    -23.651093154187482
                ]
            },
            "properties": {
                "Nom": "Vale das Virtudes I - São Paulo - SP"
            }
        },
        {
            "type": "Feature",
            "geometry": {
                "type": "Point",
                "coordinates": [
                    -46.60696321543922,
                    -23.45236651556517
                ]
            },
            "properties": {
                "Nom": "Cemitério do Horto - São Paulo - SP"
            }
        },
        {
            "type": "Feature",
            "geometry": {
                "type": "Point",
                "coordinates": [
                    -46.4516224434838,
                    -23.54829261571618
                ]
            },
            "properties": {
                "Nom": "Corrego Pintadinho - São Paulo - SP"
            }
        },
        {
            "type": "Feature",
            "geometry": {
                "type": "Point",
                "coordinates": [
                    -46.44991439140272,
                    -23.51020251565616
                ]
            },
            "properties": {
                "Nom": "Jardim Planalto / Jardim Santa Maria - São Paulo - SP"
            }
        },
        {
            "type": "Feature",
            "geometry": {
                "type": "Point",
                "coordinates": [
                    -46.69790185043899,
                    -23.46259001558124
                ]
            },
            "properties": {
                "Nom": "Jardim Icaraí (Brasilândia) - São Paulo - SP"
            }
        },
        {
            "type": "Feature",
            "geometry": {
                "type": "Point",
                "coordinates": [
                    -46.751829436737076,
                    -23.57949746576539
                ]
            },
            "properties": {
                "Nom": "Imperatriz Dona Amélia - São Paulo - SP"
            }
        },
        {
            "type": "Feature",
            "geometry": {
                "type": "Point",
                "coordinates": [
                    -46.696566849999996,
                    -23.689424144431296
                ]
            },
            "properties": {
                "Nom": "Nicarágua - São Paulo - SP"
            }
        },
        {
            "type": "Feature",
            "geometry": {
                "type": "Point",
                "coordinates": [
                    -46.7678095,
                    -23.68911746422619
                ]
            },
            "properties": {
                "Nom": "Santa Lúcia II - São Paulo - SP"
            }
        },
        {
            "type": "Feature",
            "geometry": {
                "type": "Point",
                "coordinates": [
                    -46.65414351075818,
                    -23.647598015872948
                ]
            },
            "properties": {
                "Nom": "Henrique Mindlin - São Paulo - SP"
            }
        },
        {
            "type": "Feature",
            "geometry": {
                "type": "Point",
                "coordinates": [
                    -46.663976024074074,
                    -23.45780851557372
                ]
            },
            "properties": {
                "Nom": "Peri Alto II - São Paulo - SP"
            }
        },
        {
            "type": "Feature",
            "geometry": {
                "type": "Point",
                "coordinates": [
                    -46.77112699999999,
                    -23.66219682099718
                ]
            },
            "properties": {
                "Nom": "Paulo de Souza Ferreira - São Paulo - SP"
            }
        },
        {
            "type": "Feature",
            "geometry": {
                "type": "Point",
                "coordinates": [
                    -46.474524133504865,
                    -23.538045215700024
                ]
            },
            "properties": {
                "Nom": "Cidade A. E. Carvalho - São Paulo - SP"
            }
        },
        {
            "type": "Feature",
            "geometry": {
                "type": "Point",
                "coordinates": [
                    -46.46247643367848,
                    -23.521724615674312
                ]
            },
            "properties": {
                "Nom": "Jardim Guarani II - São Paulo - SP"
            }
        },
        {
            "type": "Feature",
            "geometry": {
                "type": "Point",
                "coordinates": [
                    -46.70051775,
                    -23.463284909624864
                ]
            },
            "properties": {
                "Nom": "Domingos Vera - São Paulo - SP"
            }
        },
        {
            "type": "Feature",
            "geometry": {
                "type": "Point",
                "coordinates": [
                    -46.76614999999999,
                    -23.6824216681126
                ]
            },
            "properties": {
                "Nom": "Vila Santa Zélia - São Paulo - SP"
            }
        },
        {
            "type": "Feature",
            "geometry": {
                "type": "Point",
                "coordinates": [
                    -46.690392900000006,
                    -23.710691128286726
                ]
            },
            "properties": {
                "Nom": "Vila Cheba - São Paulo - SP"
            }
        },
        {
            "type": "Feature",
            "geometry": {
                "type": "Point",
                "coordinates": [
                    -46.468653756897,
                    -23.49246446562824
                ]
            },
            "properties": {
                "Nom": "Nossa Senhora Aparecida - São Paulo - SP"
            }
        },
        {
            "type": "Feature",
            "geometry": {
                "type": "Point",
                "coordinates": [
                    -46.6631293,
                    -23.45642048473222
                ]
            },
            "properties": {
                "Nom": "Três Fronteiras - São Paulo - SP"
            }
        },
        {
            "type": "Feature",
            "geometry": {
                "type": "Point",
                "coordinates": [
                    -46.4424328,
                    -23.524203214522792
                ]
            },
            "properties": {
                "Nom": "Vila Progresso - São Paulo - SP"
            }
        },
        {
            "type": "Feature",
            "geometry": {
                "type": "Point",
                "coordinates": [
                    -46.6521685,
                    -23.455943664152652
                ]
            },
            "properties": {
                "Nom": "Eucalíptos - São Paulo - SP"
            }
        },
        {
            "type": "Feature",
            "geometry": {
                "type": "Point",
                "coordinates": [
                    -46.508992084548154,
                    -23.620875015830713
                ]
            },
            "properties": {
                "Nom": "Jardim Adutora - São Paulo - SP"
            }
        },
        {
            "type": "Feature",
            "geometry": {
                "type": "Point",
                "coordinates": [
                    -46.514249662811096,
                    -23.618258965826577
                ]
            },
            "properties": {
                "Nom": "Jardim Elba - São Paulo - SP"
            }
        },
        {
            "type": "Feature",
            "geometry": {
                "type": "Point",
                "coordinates": [
                    -46.467202150000006,
                    -23.6267057269277
                ]
            },
            "properties": {
                "Nom": "Quaresma Delgado - São Paulo - SP"
            }
        },
        {
            "type": "Feature",
            "geometry": {
                "type": "Point",
                "coordinates": [
                    -46.42392250064786,
                    -23.492107515627673
                ]
            },
            "properties": {
                "Nom": "Mikail - São Paulo - SP"
            }
        },
        {
            "type": "Feature",
            "geometry": {
                "type": "Point",
                "coordinates": [
                    -46.67981916289058,
                    -23.457841515573776
                ]
            },
            "properties": {
                "Nom": "Agenor Alves Meira / Carlos Shumacker - São Paulo - SP"
            }
        },
        {
            "type": "Feature",
            "geometry": {
                "type": "Point",
                "coordinates": [
                    -46.74439836699515,
                    -23.56204651573787
                ]
            },
            "properties": {
                "Nom": "Jardim São Remo - São Paulo - SP"
            }
        },
        {
            "type": "Feature",
            "geometry": {
                "type": "Point",
                "coordinates": [
                    -46.65344215000001,
                    -23.462730621643423
                ]
            },
            "properties": {
                "Nom": "Condessa Amália Matarazzo - São Paulo - SP"
            }
        },
        {
            "type": "Feature",
            "geometry": {
                "type": "Point",
                "coordinates": [
                    -46.73409109919747,
                    -23.65008601587688
                ]
            },
            "properties": {
                "Nom": "João Gaspar II - São Paulo - SP"
            }
        },
        {
            "type": "Feature",
            "geometry": {
                "type": "Point",
                "coordinates": [
                    -46.755536854671,
                    -23.592968915786656
                ]
            },
            "properties": {
                "Nom": "Vale da Esperança - São Paulo - SP"
            }
        },
        {
            "type": "Feature",
            "geometry": {
                "type": "Point",
                "coordinates": [
                    -46.735922884088794,
                    -23.66266266589676
                ]
            },
            "properties": {
                "Nom": "Jardim São Francisco de Assis - São Paulo - SP"
            }
        },
        {
            "type": "Feature",
            "geometry": {
                "type": "Point",
                "coordinates": [
                    -46.64445455,
                    -23.659317581403517
                ]
            },
            "properties": {
                "Nom": "Ponte da Fonte São Bento - São Paulo - SP"
            }
        },
        {
            "type": "Feature",
            "geometry": {
                "type": "Point",
                "coordinates": [
                    -46.654430652364304,
                    -23.459626415576583
                ]
            },
            "properties": {
                "Nom": "São José Bruna Galéa - São Paulo - SP"
            }
        },
        {
            "type": "Feature",
            "geometry": {
                "type": "Point",
                "coordinates": [
                    -46.773850282234434,
                    -23.643906515867105
                ]
            },
            "properties": {
                "Nom": "Guerreiro - São Paulo - SP"
            }
        },
        {
            "type": "Feature",
            "geometry": {
                "type": "Point",
                "coordinates": [
                    -46.674585,
                    -23.45892636695062
                ]
            },
            "properties": {
                "Nom": "Complexo Penha Brasil - São Paulo - SP"
            }
        },
        {
            "type": "Feature",
            "geometry": {
                "type": "Point",
                "coordinates": [
                    -46.76146098830447,
                    -23.590896515783378
                ]
            },
            "properties": {
                "Nom": "Raposo Tavares - São Paulo - SP"
            }
        },
        {
            "type": "Feature",
            "geometry": {
                "type": "Point",
                "coordinates": [
                    -46.669985499999996,
                    -23.633748157398628
                ]
            },
            "properties": {
                "Nom": "Emboabas / César Ravasco - São Paulo - SP"
            }
        },
        {
            "type": "Feature",
            "geometry": {
                "type": "Point",
                "coordinates": [
                    -46.65239460733974,
                    -23.656662015887278
                ]
            },
            "properties": {
                "Nom": "Paraguai - São Paulo - SP"
            }
        },
        {
            "type": "Feature",
            "geometry": {
                "type": "Point",
                "coordinates": [
                    -46.654236350000005,
                    -23.45733176852101
                ]
            },
            "properties": {
                "Nom": "Letícia Cini - São Paulo - SP"
            }
        },
        {
            "type": "Feature",
            "geometry": {
                "type": "Point",
                "coordinates": [
                    -46.509239199999996,
                    -23.615047584613887
                ]
            },
            "properties": {
                "Nom": "Parque Santa Madalena I - São Paulo - SP"
            }
        },
        {
            "type": "Feature",
            "geometry": {
                "type": "Point",
                "coordinates": [
                    -46.66070499999999,
                    -23.646547379465193
                ]
            },
            "properties": {
                "Nom": "Souza Dantas - São Paulo - SP"
            }
        },
        {
            "type": "Feature",
            "geometry": {
                "type": "Point",
                "coordinates": [
                    -46.76236725,
                    -23.67122525686315
                ]
            },
            "properties": {
                "Nom": "Vaz de Lima/Santo Dias/ Jadim Lidia - São Paulo - SP"
            }
        },
        {
            "type": "Feature",
            "geometry": {
                "type": "Point",
                "coordinates": [
                    -46.662475425510515,
                    -23.68956921593933
                ]
            },
            "properties": {
                "Nom": "Domitila - São Paulo - SP"
            }
        },
        {
            "type": "Feature",
            "geometry": {
                "type": "Point",
                "coordinates": [
                    -46.45930757433218,
                    -23.487630715620636
                ]
            },
            "properties": {
                "Nom": "Vila Jacuí AB - São Paulo - SP"
            }
        },
        {
            "type": "Feature",
            "geometry": {
                "type": "Point",
                "coordinates": [
                    -46.68825085,
                    -23.45237330327351
                ]
            },
            "properties": {
                "Nom": "Martimperere - São Paulo - SP"
            }
        },
        {
            "type": "Feature",
            "geometry": {
                "type": "Point",
                "coordinates": [
                    -46.74824236224885,
                    -23.682215815927698
                ]
            },
            "properties": {
                "Nom": "Parque Figueira Grande II - São Paulo - SP"
            }
        },
        {
            "type": "Feature",
            "geometry": {
                "type": "Point",
                "coordinates": [
                    -46.64276685,
                    -23.706244357585632
                ]
            },
            "properties": {
                "Nom": "Fumaça / Neblina / Leblon - São Paulo - SP"
            }
        },
        {
            "type": "Feature",
            "geometry": {
                "type": "Point",
                "coordinates": [
                    -46.49886042870644,
                    -23.597283365793455
                ]
            },
            "properties": {
                "Nom": "Tanque Itápolis - São Paulo - SP"
            }
        },
        {
            "type": "Feature",
            "geometry": {
                "type": "Point",
                "coordinates": [
                    -46.68315755889611,
                    -23.452413265565248
                ]
            },
            "properties": {
                "Nom": "Araripira - São Paulo - SP"
            }
        },
        {
            "type": "Feature",
            "geometry": {
                "type": "Point",
                "coordinates": [
                    -46.7019905,
                    -23.729794814953742
                ]
            },
            "properties": {
                "Nom": "Presidente Jordanópolis - São Paulo - SP"
            }
        },
        {
            "type": "Feature",
            "geometry": {
                "type": "Point",
                "coordinates": [
                    -46.64224890381969,
                    -23.619187815828052
                ]
            },
            "properties": {
                "Nom": "Mauro II - São Paulo - SP"
            }
        },
        {
            "type": "Feature",
            "geometry": {
                "type": "Point",
                "coordinates": [
                    -46.78951404625326,
                    -23.65649601588701
                ]
            },
            "properties": {
                "Nom": "João de Cruz e Souza - São Paulo - SP"
            }
        },
        {
            "type": "Feature",
            "geometry": {
                "type": "Point",
                "coordinates": [
                    -46.66096539736713,
                    -23.686410165934337
                ]
            },
            "properties": {
                "Nom": "Jardim São Jorge - São Paulo - SP"
            }
        },
        {
            "type": "Feature",
            "geometry": {
                "type": "Point",
                "coordinates": [
                    -46.76166320194434,
                    -23.699359015954826
                ]
            },
            "properties": {
                "Nom": "Alto do Riviera A - São Paulo - SP"
            }
        },
        {
            "type": "Feature",
            "geometry": {
                "type": "Point",
                "coordinates": [
                    -46.65897385,
                    -23.689837653664107
                ]
            },
            "properties": {
                "Nom": "Jardim Itapurá I - São Paulo - SP"
            }
        },
        {
            "type": "Feature",
            "geometry": {
                "type": "Point",
                "coordinates": [
                    -46.64216625,
                    -23.623679966780358
                ]
            },
            "properties": {
                "Nom": "Mauro - São Paulo - SP"
            }
        },
        {
            "type": "Feature",
            "geometry": {
                "type": "Point",
                "coordinates": [
                    -46.7283543,
                    -23.60893513913217
                ]
            },
            "properties": {
                "Nom": "Jardim Colombo - São Paulo - SP"
            }
        },
        {
            "type": "Feature",
            "geometry": {
                "type": "Point",
                "coordinates": [
                    -46.75979586078958,
                    -23.690974515941555
                ]
            },
            "properties": {
                "Nom": "Jardim Herculano - São Paulo - SP"
            }
        },
        {
            "type": "Feature",
            "geometry": {
                "type": "Point",
                "coordinates": [
                    -46.64926799486675,
                    -23.474057015599282
                ]
            },
            "properties": {
                "Nom": "Conselheiro Moreira de Barros - São Paulo - SP"
            }
        },
        {
            "type": "Feature",
            "geometry": {
                "type": "Point",
                "coordinates": [
                    -46.7693684629839,
                    -23.678050715921103
                ]
            },
            "properties": {
                "Nom": "São José I - São Paulo - SP"
            }
        },
        {
            "type": "Feature",
            "geometry": {
                "type": "Point",
                "coordinates": [
                    -46.709145150000005,
                    -23.45720078448613
                ]
            },
            "properties": {
                "Nom": "Lagoa da Serra - São Paulo - SP"
            }
        },
        {
            "type": "Feature",
            "geometry": {
                "type": "Point",
                "coordinates": [
                    -46.510123905107676,
                    -23.594858865789632
                ]
            },
            "properties": {
                "Nom": "Sinhá - São Paulo - SP"
            }
        },
        {
            "type": "Feature",
            "geometry": {
                "type": "Point",
                "coordinates": [
                    -46.702165810298105,
                    -23.737850016015795
                ]
            },
            "properties": {
                "Nom": "Jardim Beatriz - São Paulo - SP"
            }
        },
        {
            "type": "Feature",
            "geometry": {
                "type": "Point",
                "coordinates": [
                    -46.637352330273146,
                    -23.67402101591472
                ]
            },
            "properties": {
                "Nom": "Fulfaro - São Paulo - SP"
            }
        },
        {
            "type": "Feature",
            "geometry": {
                "type": "Point",
                "coordinates": [
                    -46.78979727491418,
                    -23.660252115892956
                ]
            },
            "properties": {
                "Nom": "Jardim das Rosas - São Paulo - SP"
            }
        },
        {
            "type": "Feature",
            "geometry": {
                "type": "Point",
                "coordinates": [
                    -46.78509607168517,
                    -23.588893065780223
                ]
            },
            "properties": {
                "Nom": "Tintas Wanda I / São Jorge II - São Paulo - SP"
            }
        },
        {
            "type": "Feature",
            "geometry": {
                "type": "Point",
                "coordinates": [
                    -46.7787909104039,
                    -23.57480901575799
                ]
            },
            "properties": {
                "Nom": "Jardim D´Abril II - São Paulo - SP"
            }
        },
        {
            "type": "Feature",
            "geometry": {
                "type": "Point",
                "coordinates": [
                    -46.70504214999999,
                    -23.73050024173313
                ]
            },
            "properties": {
                "Nom": "Jardim Iporanga / Esmeralda - São Paulo - SP"
            }
        },
        {
            "type": "Feature",
            "geometry": {
                "type": "Point",
                "coordinates": [
                    -46.63475534999999,
                    -23.6649846580303
                ]
            },
            "properties": {
                "Nom": "Imprensa Colonos - São Paulo - SP"
            }
        },
        {
            "type": "Feature",
            "geometry": {
                "type": "Point",
                "coordinates": [
                    -46.79012675609859,
                    -23.580057515766274
                ]
            },
            "properties": {
                "Nom": "Morumbizinho - São Paulo - SP"
            }
        },
        {
            "type": "Feature",
            "geometry": {
                "type": "Point",
                "coordinates": [
                    -46.75048995,
                    -23.641549926529365
                ]
            },
            "properties": {
                "Nom": "Parque Aloysio / Parque São Luís - São Paulo - SP"
            }
        },
        {
            "type": "Feature",
            "geometry": {
                "type": "Point",
                "coordinates": [
                    -46.632974943635375,
                    -23.67232451591204
                ]
            },
            "properties": {
                "Nom": "Mendes Gaia - São Paulo - SP"
            }
        },
        {
            "type": "Feature",
            "geometry": {
                "type": "Point",
                "coordinates": [
                    -46.76491045945946,
                    -23.68485401593187
                ]
            },
            "properties": {
                "Nom": "Jardim Dionízio - São Paulo - SP"
            }
        },
        {
            "type": "Feature",
            "geometry": {
                "type": "Point",
                "coordinates": [
                    -46.778801529319296,
                    -23.643350565866232
                ]
            },
            "properties": {
                "Nom": "Jardim Leônidas Moreira - São Paulo - SP"
            }
        },
        {
            "type": "Feature",
            "geometry": {
                "type": "Point",
                "coordinates": [
                    -46.695137758350306,
                    -23.4518773155644
                ]
            },
            "properties": {
                "Nom": "Hugo Ítalo Merigo - São Paulo - SP"
            }
        },
        {
            "type": "Feature",
            "geometry": {
                "type": "Point",
                "coordinates": [
                    -46.63977788017258,
                    -23.677664265920495
                ]
            },
            "properties": {
                "Nom": "Light I - São Paulo - SP"
            }
        },
        {
            "type": "Feature",
            "geometry": {
                "type": "Point",
                "coordinates": [
                    -46.64187835,
                    -23.668433440950185
                ]
            },
            "properties": {
                "Nom": "Maranhão I - São Paulo - SP"
            }
        },
        {
            "type": "Feature",
            "geometry": {
                "type": "Point",
                "coordinates": [
                    -46.78799298309849,
                    -23.65299781588148
                ]
            },
            "properties": {
                "Nom": "Olímpio Rodrigues de Araújo - São Paulo - SP"
            }
        },
        {
            "type": "Feature",
            "geometry": {
                "type": "Point",
                "coordinates": [
                    -46.64715332916647,
                    -23.66361401589827
                ]
            },
            "properties": {
                "Nom": "Cidade Azul / Cidade Azul II - São Paulo - SP"
            }
        },
        {
            "type": "Feature",
            "geometry": {
                "type": "Point",
                "coordinates": [
                    -46.64046743458852,
                    -23.704138665962393
                ]
            },
            "properties": {
                "Nom": "Parque Dorotéia I e II - São Paulo - SP"
            }
        },
        {
            "type": "Feature",
            "geometry": {
                "type": "Point",
                "coordinates": [
                    -46.522091456454376,
                    -23.594979715789826
                ]
            },
            "properties": {
                "Nom": "Walter Ferreira - São Paulo - SP"
            }
        },
        {
            "type": "Feature",
            "geometry": {
                "type": "Point",
                "coordinates": [
                    -46.78562052631088,
                    -23.594945565789768
                ]
            },
            "properties": {
                "Nom": "Arpoador - São Paulo - SP"
            }
        },
        {
            "type": "Feature",
            "geometry": {
                "type": "Point",
                "coordinates": [
                    -46.74359945,
                    -23.67613781710126
                ]
            },
            "properties": {
                "Nom": "Parque Europa II - São Paulo - SP"
            }
        },
        {
            "type": "Feature",
            "geometry": {
                "type": "Point",
                "coordinates": [
                    -46.74898110131585,
                    -23.672893665912937
                ]
            },
            "properties": {
                "Nom": "Chácara Santana I, II e III - São Paulo - SP"
            }
        },
        {
            "type": "Feature",
            "geometry": {
                "type": "Point",
                "coordinates": [
                    -46.765849849999995,
                    -23.677560390581196
                ]
            },
            "properties": {
                "Nom": "Jardim Imbé II - São Paulo - SP"
            }
        },
        {
            "type": "Feature",
            "geometry": {
                "type": "Point",
                "coordinates": [
                    -46.746457,
                    -23.682752139520908
                ]
            },
            "properties": {
                "Nom": "Jardim Dulce - São Paulo - SP"
            }
        },
        {
            "type": "Feature",
            "geometry": {
                "type": "Point",
                "coordinates": [
                    -46.6342639201804,
                    -23.677836265920767
                ]
            },
            "properties": {
                "Nom": "Sebastião Afonso - São Paulo - SP"
            }
        },
        {
            "type": "Feature",
            "geometry": {
                "type": "Point",
                "coordinates": [
                    -46.754008999999996,
                    -23.66900960414211
                ]
            },
            "properties": {
                "Nom": "Parque Santo Antônio I - São Paulo - SP"
            }
        },
        {
            "type": "Feature",
            "geometry": {
                "type": "Point",
                "coordinates": [
                    -46.637649730308965,
                    -23.67170291591106
                ]
            },
            "properties": {
                "Nom": "Tanquinho - São Paulo - SP"
            }
        },
        {
            "type": "Feature",
            "geometry": {
                "type": "Point",
                "coordinates": [
                    -46.7128105,
                    -23.736902681998544
                ]
            },
            "properties": {
                "Nom": "Santa Rita II - São Paulo - SP"
            }
        },
        {
            "type": "Feature",
            "geometry": {
                "type": "Point",
                "coordinates": [
                    -46.6284249,
                    -23.626779804986043
                ]
            },
            "properties": {
                "Nom": "Nova Imigrantes - São Paulo - SP"
            }
        },
        {
            "type": "Feature",
            "geometry": {
                "type": "Point",
                "coordinates": [
                    -46.631265781843894,
                    -23.676161915918115
                ]
            },
            "properties": {
                "Nom": "Cirenaica - São Paulo - SP"
            }
        },
        {
            "type": "Feature",
            "geometry": {
                "type": "Point",
                "coordinates": [
                    -46.782585499999996,
                    -23.675403624861673
                ]
            },
            "properties": {
                "Nom": "Jardim Comercial I - São Paulo - SP"
            }
        },
        {
            "type": "Feature",
            "geometry": {
                "type": "Point",
                "coordinates": [
                    -46.77963905,
                    -23.676665836594594
                ]
            },
            "properties": {
                "Nom": "Jardim Comercial II - São Paulo - SP"
            }
        },
        {
            "type": "Feature",
            "geometry": {
                "type": "Point",
                "coordinates": [
                    -46.790248243120615,
                    -23.663441515897997
                ]
            },
            "properties": {
                "Nom": "Jardim Irene I - São Paulo - SP"
            }
        },
        {
            "type": "Feature",
            "geometry": {
                "type": "Point",
                "coordinates": [
                    -46.79446887433008,
                    -23.66737501590421
                ]
            },
            "properties": {
                "Nom": "Jardim Magdalena - São Paulo - SP"
            }
        },
        {
            "type": "Feature",
            "geometry": {
                "type": "Point",
                "coordinates": [
                    -46.69212355000001,
                    -23.697697144344975
                ]
            },
            "properties": {
                "Nom": "Manuel de Teffe - São Paulo - SP"
            }
        },
        {
            "type": "Feature",
            "geometry": {
                "type": "Point",
                "coordinates": [
                    -46.74103169999999,
                    -23.634560734396015
                ]
            },
            "properties": {
                "Nom": "Pullman - São Paulo - SP"
            }
        },
        {
            "type": "Feature",
            "geometry": {
                "type": "Point",
                "coordinates": [
                    -46.7428909,
                    -23.545263592996175
                ]
            },
            "properties": {
                "Nom": "Nova Jaguaré - São Paulo - SP"
            }
        },
        {
            "type": "Feature",
            "geometry": {
                "type": "Point",
                "coordinates": [
                    -46.712756,
                    -23.73255709838115
                ]
            },
            "properties": {
                "Nom": "Jardim Imbuias I - São Paulo - SP"
            }
        },
        {
            "type": "Feature",
            "geometry": {
                "type": "Point",
                "coordinates": [
                    -46.75972017270747,
                    -23.680730465925343
                ]
            },
            "properties": {
                "Nom": "Parque Amélia / Santa Margarida - São Paulo - SP"
            }
        },
        {
            "type": "Feature",
            "geometry": {
                "type": "Point",
                "coordinates": [
                    -46.6992845,
                    -23.603155250201574
                ]
            },
            "properties": {
                "Nom": "Jardim Panorama - São Paulo - SP"
            }
        },
        {
            "type": "Feature",
            "geometry": {
                "type": "Point",
                "coordinates": [
                    -46.69617631531896,
                    -23.743457266024674
                ]
            },
            "properties": {
                "Nom": "Parque São Paulo - São Paulo - SP"
            }
        },
        {
            "type": "Feature",
            "geometry": {
                "type": "Point",
                "coordinates": [
                    -46.644298299999996,
                    -23.663993303552136
                ]
            },
            "properties": {
                "Nom": "Cidade de Santos - São Paulo - SP"
            }
        },
        {
            "type": "Feature",
            "geometry": {
                "type": "Point",
                "coordinates": [
                    -46.7543405,
                    -23.65231540961533
                ]
            },
            "properties": {
                "Nom": "Jardim Capelinha / Nuno Roland - São Paulo - SP"
            }
        },
        {
            "type": "Feature",
            "geometry": {
                "type": "Point",
                "coordinates": [
                    -46.7391273697208,
                    -23.554182965725463
                ]
            },
            "properties": {
                "Nom": "Beira da Linha - São Paulo - SP"
            }
        },